---
google_map:
  options:
    internal:
      id: map
    provider:
      streetViewControl: false
      panControl: false
      zoomControlOptions:
      styles:
      - featureType: road
        elementType: geometry
        stylers:
        - lightness: 100
        - visibility: simplified
      - featureType: road
        elementType: labels
        stylers:
        - visibility: false
      - featureType: poi
        stylers:
        - visibility: false
      - featureType: poi
        elementType: labels.text
        stylers:
        - visibility: false
      - featureType: transit
        stylers:
        - visibility: false
navigation:
  categories:
  - name: Eat
    subcategories:
    - name: Bakeries
    - name: Delis
    - name: Restaurants
    - name: Brunch
    - name: Dinner
    - name: Gluten-free
    - name: Sandwiches
  - name: Drink
    subcategories:
    - name: Bars
    - name: Breweries
    - name: Cafe
    - name: Tea Shops
  - name: Shop
    subcategories:
    - name: Artisan
    - name: Antiques
    - name: Art
  - name: Services
    subcategories:
    - name: Realtors
    - name: Agents
locations:
- name: Black Rook Bakehouse
  address: 2474 East Hastings St.
  phone: 604-563-5094
  website: http://www.blackrookbakehouse.com/
  lat: 49.2811524
  lng: -123.0552038
  category:
    name: Eat
    subcategories:
      name: Bakeries
- name: Scandilicious Dockside
  address: 25 Victoria Drive
  website: http://www.scandilicious.com/
  lat: 49.2844445
  lng: -123.0655419
  category:
    name: Eat
    subcategories:
      name: Dinner
- name: Salteñas
  address: 2261 East Hastings St.
  website: https://www.facebook.com/saltenas.rocio
  phone: 604-253-0004
  lat: 49.2812965
  lng: -123.0587826
  category:
    name: Eat
    subcategories:
      name: Lunch
- name: Italia Bakery
  address: 2828 East Hastings St.
  website: http://www.italiabakery.ca/
  phone: 604-251-6800
  lat: 49.2811348
  lng: -123.046537
  category:
    name: Eat
- name: Coffeecino
  address: 2550 East Hastings St.
  lat: 49.2811455
  lng: -123.0532587
  category:
    name: Drink
- name: Bianca Maria Italian Fine Foods
  address: 2469 East Hastings St.
  phone: 604-253-9626
  lat: 49.28117659999999
  lng: -123.0552455
  category:
    name: Shop
- name: Rio Friendly Meats
  address: 2477 East Hastings St.
  website: http://riofriendlymeats.webs.com/
  phone: 604-253-0345
  lat: 49.2811761
  lng: -123.0551177
  category:
    name: Shop
- name: Habit Natural Health
  address: 2307 East Hastings St.
  phone: 604-563-8822
  lat: 49.281195
  lng: -123.0577659
  category:
    name: Shop
- name: Pallet Coffee Roasters
  address: 23 Semlin Drive
  website: http://www.palletcoffeeroasters.com/
  lat: 49.28469500000001
  lng: -123.0635886
  category:
    name: Drink
- name: Jackalopes Neighbourhood Dive
  address: 2257 East Hastings St.
  website: http://jackalopevancouver.com/
  lat: 49.2812947
  lng: -123.0589523
  category:
    name: Drink
- name: Basho Cafe and Sweets
  address: 2007 East Hastings St.
  lat: 49.2813279
  lng: -123.0633789
  category:
    name: Drink
- name: Renfrew Cafe
  address: 826 Renfrew St.
  lat: 49.2770139
  lng: -123.0438715
  category:
    name: Drink
- name: The Brighton
  address: 2471 East Hastings St.
  website: https://www.facebook.com/BrightonRestaurant
  phone: 604-428-8822
  lat: 49.2812645
  lng: -123.0551954
  category:
    name: Drink
- name: Platform 7 Coffee
  address: 2331 East Hastings St.
  website: http://platform7coffee.com/
  phone: 604-428-1455
  lat: 49.2811905
  lng: -123.0574196
  category:
    name: Drink
- name: Odd Society Spirits
  address: 1725 Powell St.
  phone: 604-716-6745
  website: http://www.oddsocietyspirits.com/wordpress/spirits/
  lat: 49.2840736
  lng: -123.0696796
  category:
    name: Drink
- name: East Cafe
  address: 2401 East Hastings St.
  website: www.eastcafe.ca
  phone: 604-559-6400
  lat: 49.2812663
  lng: -123.0563085
  category:
    name: Drink
- name: Baaad Anna&apos;s
  address: 2667 East Hastings St.
  website: https://baaadannas.wordpress.com/
  phone: 604-255-2577
  category:
    name: Shop
  lat: 49.2812657
  lng: -123.0503077
- name: BelAir Realty
  address: 2621 East Hastings St.
  website: http://belairrealty.ca
  phone: 604-255-5898
  category:
    name: Services
  lat: 49.2811613
  lng: -123.0513182
- name: Bmo Bank of Montreal
  address: 2515 East Hastings St.
  website: http://bmo.com
  phone: 604-665-6693
  category:
    name: Services
  lat: 49.2812344
  lng: -123.0540882
- name: Campagnolo Roma
  address: 2297 East Hastings St.
  website: http://www.campagnoloroma.com/
  phone: 604-569-0456
  category:
    name: Eat
  lat: 49.2811964
  lng: -123.0579466
- name: CIBC
  address: 2602 East Hastings St.
  website: http://cibc.com
  phone: 604-665-6860
  category:
    name: Services
- name: Continental Sausage
  address: 1927 East Hastings St.
  website: http://www.freybe.com/
  phone: 604-255-6922
  lat: 49.281347
  lng: -123.064945
  category:
    name: Shop
- name: Dayton Boots
  address: 2250 East Hastings St.
  website: http://www.daytonboots.com/
  phone:  800-342-8934
  category:
    name: Shop
- name: Docker’s Diner
  address: 1869 Powell St.
  phone: 604-254-3732
  category:
    name: Eat
- name: Donald&apos;s Market
  address: 2342 East Hastings St.
  website: http://www.donaldsmarket.com/
  phone: 604-254-3014
  category:
    name: Shop
- name: East Village Bakery
  address: 2166 East Hastings St.
  website: http://www.eastvillagebakery.com/
  phone: 604-568-5600
  lat: 49.28118320000001
  lng: -123.0602248
  category:
    name: Eat
    subcategories:
      name: Gluten-free
- name: El Pulgarcito
  address: 2522 East Hastings St.
  website: https://www.facebook.com/pages/El-Pulgarcito/291423040914481
  phone: 604-568-8591
  category:
    name: Eat
- name: FrogBox
  address: 1631 Powell St.
  website: http://frogbox.com/
  phone: 877-376-4269
  category:
    name: Services
- name: HSBC Bank Canada
  address: 2590 East Hastings St.
  website: http://www.hsbc.ca/
  phone: 604-253-1531
  category:
    name: Services
- name: JJ Beans Powell
  address: 1904 Powell St
  website: http://www.jjbeancoffee.com/
  phone: 604-254-0169
  category:
    name: Drink